[
  {
    "BuildingName": "捷運挑高＊＊",
    "Address": "台北市中山區新生北路３段６８巷",
    "Latitude": "25.066109",
    "Longitude": "121.527206"
  },
  {
    "BuildingName": "松江10＊＊",
    "Address": "台北市中山區松江路",
    "Latitude": "25.0458603",
    "Longitude": "121.5331864"
  },
  {
    "BuildingName": "長安高樓＊＊",
    "Address": "台北市中山區長安東路２段",
    "Latitude": "25.048193",
    "Longitude": "121.5405273"
  },
  {
    "BuildingName": "美術館+＊＊",
    "Address": "台北市中山區新生北路３段６８巷",
    "Latitude": "25.065284",
    "Longitude": "121.5263092"
  },
  {
    "BuildingName": "專約~雙＊＊",
    "Address": "台北市中山區民生東路１段",
    "Latitude": "25.0579538",
    "Longitude": "121.5265761"
  },
  {
    "BuildingName": "華山特區＊＊",
    "Address": "台北市中山區新生北路１段",
    "Latitude": "25.047724",
    "Longitude": "121.530414"
  },
  {
    "BuildingName": "傳家寶四＊＊",
    "Address": "台北市中山區明水路",
    "Latitude": "25.081405",
    "Longitude": "121.551319"
  },
  {
    "BuildingName": "★年終驚＊＊",
    "Address": "台北市中山區長安東路２段",
    "Latitude": "25.0489121",
    "Longitude": "121.5357411"
  },
  {
    "BuildingName": "松江明珠＊＊",
    "Address": "台北市中山區松江路",
    "Latitude": "25.047276",
    "Longitude": "121.533658"
  },
  {
    "BuildingName": "中山國小＊＊",
    "Address": "台北市中山區農安街",
    "Latitude": "25.0647916",
    "Longitude": "121.5266585"
  },
  {
    "BuildingName": "純一樓實＊＊",
    "Address": "台北市中山區復興北路",
    "Latitude": "25.0654326",
    "Longitude": "121.5435006"
  },
  {
    "BuildingName": "近捷運精＊＊",
    "Address": "台北市中山區民生東路１段",
    "Latitude": "25.0582138",
    "Longitude": "121.5247214"
  },
  {
    "BuildingName": "太平洋閣＊＊",
    "Address": "台北市中山區北安路６３０巷",
    "Latitude": "25.0829034",
    "Longitude": "121.5494885"
  },
  {
    "BuildingName": "雙連站靜＊＊",
    "Address": "台北市中山區中山北路２段９６巷",
    "Latitude": "25.0599245",
    "Longitude": "121.5215656"
  },
  {
    "BuildingName": "尊勝建設＊＊",
    "Address": "台北市中山區吉林路",
    "Latitude": "25.0491942",
    "Longitude": "121.5299034"
  },
  {
    "BuildingName": "興安高樓＊＊",
    "Address": "台北市中山區復興北路",
    "Latitude": "25.0571129",
    "Longitude": "121.54381"
  },
  {
    "BuildingName": "複製的A",
    "Address": "台北市中山區復興北路",
    "Latitude": "25.0571129",
    "Longitude": "121.54381"
  },
  {
    "BuildingName": "複製的B",
    "Address": "台北市中山區復興北路",
    "Latitude": "25.0571129",
    "Longitude": "121.54381"
  },
  {
    "BuildingName": "複製的C",
    "Address": "台北市中山區復興北路",
    "Latitude": "25.0571129",
    "Longitude": "121.54381"
  },
  {
    "BuildingName": "複製的D",
    "Address": "台北市中山區復興北路",
    "Latitude": "25.0571129",
    "Longitude": "121.54381"
  },
  {
    "BuildingName": "複製的E",
    "Address": "台北市中山區復興北路",
    "Latitude": "25.0571129",
    "Longitude": "121.54381"
  },
  {
    "BuildingName": "複製的F",
    "Address": "台北市中山區復興北路",
    "Latitude": "25.0571129",
    "Longitude": "121.54381"
  },
  {
    "BuildingName": "複製的G",
    "Address": "台北市中山區復興北路",
    "Latitude": "25.0571129",
    "Longitude": "121.54381"
  },
  {
    "BuildingName": "複製的H",
    "Address": "台北市中山區復興北路",
    "Latitude": "25.0571129",
    "Longitude": "121.54381"
  },
  {
    "BuildingName": "複製的I",
    "Address": "台北市中山區復興北路",
    "Latitude": "25.0571129",
    "Longitude": "121.54381"
  },
  {
    "BuildingName": "複製的J",
    "Address": "台北市中山區復興北路",
    "Latitude": "25.0571129",
    "Longitude": "121.54381"
  },
  {
    "BuildingName": "松江精緻＊＊",
    "Address": "台北市中山區松江路",
    "Latitude": "25.0461426",
    "Longitude": "121.5329514"
  },
  {
    "BuildingName": "中山北稀＊＊",
    "Address": "台北市中山區中山北路３段",
    "Latitude": "25.065306",
    "Longitude": "121.522038"
  }
]